stop_id,stop_code,stop_name,stop_desc,stop_lat,stop_lon,location_type,wheelchair_boarding
23585,23585,County Fair Mall - Depart,,38.6598918533261,-121.76403264785,0,1
23056,23056,Gibson at Coloma,,38.662977,-121.770156,0,1
23055,23055,Gibson at College WB,,38.6629929132312,-121.775266477122,0,1
23061,23061,Gibson at Spruce,,38.663008,-121.778062,0,1
23064,23064,W. Gibson at West WB,Gibson at West,38.6630481660195,-121.785007263496,0,1
23058,23058,W. Gibson at Midway WB,W. Gibson at Midway,38.6630792116278,-121.787134990583,0,1
23051,23051,W. Gibson at Amherst WB,W. Gibson at Amherst,38.6631404555882,-121.791548694298,0,1
23031,23031,Cottonwood at W. Gibson NB,Hospital,38.6641788111258,-121.793345549445,0,1
23037,23037,Cottonwood at W. Southwood NB,,38.6695763470704,-121.793313462746,0,1
23029,23029,Cottonwood at W. Cross NB,,38.6719701729346,-121.793295636802,0,1
23033,23033,Cottonwood at W. Lincoln NB,,38.6756185126458,-121.793255817509,0,1
23075,23075,W. Lincoln at Ashley WB,W. Lincoln at Ashley,38.675944161521,-121.797263089702,0,1
23305,23305,W. Lincoln at Rd 98 WB,,38.6755833463582,-121.801364601551,0,1
23297,23297,Ashley at W. Court,,38.678714837927,-121.797852563154,0,1
23294,23294,W. Court at Cottonwood EB,W. Court at Cottonwood,38.6788749347281,-121.7938618996,0,1
23027,23027,Cottonwood at Riverside NB,,38.6805824149002,-121.793197649312,0,1
23025,23025,Cottonwood at Buckeye NB,,38.6832498719245,-121.793148028442,0,1
23023,23023,Cottonwood at W Beamer NB,,38.6847549248279,-121.793134439921,0,1
23495,23495,N. Cottonwood at W. Woodland NB,,38.6878793649602,-121.793571817492,0,1
23497,23497,N. Ashley at W. Woodland,,38.6889468842117,-121.797774839269,0,1
23498,23498,W. Kentucky at N. Ashley,,38.6920772338174,-121.797534044046,0,1
23505,23505,N. Cottonwood at W. Kentucky,,38.6919408818801,-121.7932255134,0,1
23496,23496,N. Cottonwood at W. Woodland SB,,38.6881034422129,-121.793701466104,0,1
23014,23014,W. Beamer at Mariposa EB,W. Beamer at Mariposa,38.6847913267257,-121.79007688302,0,1
23020,23020,W. Beamer at West EB,W. Beamer at West,38.6847404863308,-121.784232621533,0,1
23099,23099,West at Clover SB,West at Clover,38.682452844058,-121.78406505766,0,1
23102,23102,West at North SB,West at North,38.6799035117693,-121.784082883604,0,1
23041,23041,Court at Cleveland EB,,38.6787874545348,-121.779626397624,0,1
23045,23045,Court at Walnut EB,,38.678775947021,-121.777882234924,0,1
23043,23043,Court at College EB,,38.6787504660338,-121.77420626725,0,1
23039,23039,Court at 2nd EB,Post Office,38.6787316905696,-121.771579043363,0,1
23298,23298,3rd St. at Clover NB,,38.6825471331207,-121.770532981785,0,1
23301,23301,3rd St. at Beamer NB,,38.6844120944906,-121.770513775091,0,1
23018,23018,Beamer at 5th EB,,38.6846701016825,-121.767278120952,0,1
23016,23016,E. Beamer at Matmor EB,,38.6845896354073,-121.758535460146,0,1
23087,23087,Matmor at Cannery SB,Matmor at Cannery,38.6811925532286,-121.756278337045,0,1
23073,23073,Industrial at E. Main SB,Industrial at E. Main,38.6779836374365,-121.753065245973,0,1
23090,23090,Matmor at E. Main SB,Matmor at E. Main,38.676736,-121.756232,0,1
23088,23088,Matmor at Crystal Springs,,38.6732975475269,-121.756287562365,0,1
23094,23094,Matmor at Gum SB,Matmor at Gum,38.6687103239094,-121.756333909819,0,1
23069,23069,E. Gum at Matmor WB,E. Gum at Matmor,38.6683270010315,-121.757226229128,0,1
23066,23066,E. Gum at East WB,Gum at East,38.668398123426,-121.764340110645,0,1
23494,23494,Woodland Community & Senior Center NB,,38.6538018973948,-121.764945940074,0,1
23363,23363,E. Gibson at County Fair Mall EB,E. Gibson at County Fair Mall,38.6627316991451,-121.761537574682,0,1
23063,23063,E. Gibson at Washington EB,,38.6627380382862,-121.758685246039,0,1
23104,23104,E. Gibson at Pioneer EB,Pioneer High School,38.6626019160132,-121.741189195342,0,1
23302,23302,Woodland Community College,,38.6606980896216,-121.735572224789,0,1
23096,23096,Ogden at Branigan,29,38.6643353443154,-121.735618282494,0,1
23049,23049,Farnham at Howard NB,,38.6659307681287,-121.731657711806,0,1
23506,23506,Maxwell at Burns EB,,38.6686829606203,-121.729947977213,0,1
23503,23503,Veterans at Maxwell,,38.6693801682818,-121.723847789994,0,1
23507,23507,Maxwell at Burns WB,,38.6687724319427,-121.730850973767,0,1
23046,23046,Farnham at Maxwell NB,,38.6678956081621,-121.733115340762,0,1
23047,23047,Farnham at Eaton,56,38.6697243998888,-121.735022176123,0,1
23071,23071,E. Gum at Wallace WB,,38.6689738135918,-121.738987519681,0,1
23097,23097,Pioneer at E. Gum NB,67,38.6697327419242,-121.742107723521,0,1
23307,23307,Pioneer at Spring Lake NB,Pioneer at Spring Lake,38.6737019868829,-121.745598043341,0,1
23308,23308,E. Main at Wal-Mart,,38.6771599159932,-121.740895911509,0,1
23072,23072,Industrial at E Main NB,Industrial at E Main,38.6780638204851,-121.752893433147,0,1
23086,23086,Matmor at Cannery NB,Matmor at Cannery,38.6813185024479,-121.756157330525,0,1
23015,23015,E. Beamer at Matmor WB,,38.6846889429133,-121.758075014869,0,1
23017,23017,Beamer at 5th WB,,38.684726571453,-121.767351452639,0,1
23300,23300,3rd St. at Beamer SB,,38.6842423320161,-121.770606469999,0,1
23299,23299,3rd St. at Clover SB,,38.6822468970049,-121.770631426321,0,1
23038,23038,Court at 2nd WB,,38.6788125033918,-121.771344464078,0,1
23042,23042,Court at College WB,,38.678837978145,-121.775220452996,0,1
23044,23044,Court at Walnut WB,,38.6788765170977,-121.777968584839,0,1
23040,23040,Court at Cleveland WB,,38.6788737338943,-121.779562224226,0,1
23502,23502,West at Park SB,,38.6731718229454,-121.78417859152,0,1
23583,23583,Cross at Dingle EB,,38.672015438796,-121.775961773155,0,1
23500,23500,College at Marshall SB,114,38.6677433799419,-121.774886299176,0,1
23057,23057,Gibson at Coloma,,38.6628184537555,-121.769269579875,0,1
23092,23092,Matmor at E. Gibson NB,Matmor at E. Gibson,38.6633128279522,-121.756411331852,0,1
23095,23095,Matmor at Gum NB,Matmor at Gum,38.6679561460849,-121.756211833428,0,1
23089,23089,Matmor at Oak NB,Matmor at Oak,38.6736679228396,-121.75614409484,0,1
23091,23091,Matmor at E. Main NB,Matmor at E. Main,38.6760922283234,-121.756101312574,0,1
23076,23076,Main at 5th WB,,38.6775065190859,-121.767991784424,0,1
23078,23078,Main at Cleveland WB,Main at Cleveland,38.6776039330019,-121.780141947799,0,1
23080,23080,W. Main at Community WB,W. Main at Community,38.6776720323162,-121.791449065385,0,1
23011,23011,Ashley at W. Lincoln SB,,38.6767356362905,-121.797997280746,0,1
23353,23353,Railroad at Main (Madison),,38.6788432386924,-121.968460882079,0,1
23354,23354,Yolo at Grafton (Esparto) NB,,38.6927599592818,-122.016622002392,0,1
23357,23357,Hwy 16 at Rd 85 (Capay) WB,,38.707234816996,-122.047641328714,0,1
23358,23358,Cache Creek Casino Resort,Cache Creek Casino,38.7358794943549,-122.142400683498,0,1
23526,23526,Hwy. 16 at Rd. 85 (Capay) EB,,38.7073384155704,-122.048612365701,0,1
23355,23355,Yolo at Grafton (Esparto) SB,,38.6929986101831,-122.016777566285,0,1
23293,23293,W. Lincoln at Rd 98 EB,,38.6752409123284,-121.801828991171,0,1
23012,23012,Ashley at W. Lincoln NB,Rite Aid,38.6767723367674,-121.797849941126,0,1
23081,23081,W. Main at Community EB,,38.677506519086,-121.791910635974,0,1
23079,23079,Main at Cleveland EB,Main at Cleveland,38.6774091050374,-121.780976201974,0,1
23568,23568,Main at Elm EB,,38.6774313711173,-121.776020589565,0,1
23077,23077,Main at 5th EB,,38.677345090019,-121.767435614973,0,1
23082,23082,E. Main at East,,38.677350092764,-121.764380540901,0,1
23085,23085,E. Main at Matmor,,38.6772471119693,-121.757845549862,0,1
23093,23093,Matmor at E. Gibson SB,Matmor at E. Gibson,38.6640409750033,-121.756512164682,0,1
23062,23062,E. Gibson at Washington WB,,38.6628875659442,-121.759496733105,0,1
23362,23362,E. Gibson at County Fair Mall WB,,38.662922995168,-121.761931777951,0,1
23306,23306,County Fair Mall,,38.6598918533261,-121.764814511825,0,1
23156,23156,W. Covell at Sycamore EB,,38.5607882476323,-121.76447118905,0,1
23128,23128,Anderson at Hanover SB,,38.5586437685652,-121.758639916588,0,1
23135,23135,Anderson at Villanova SB,,38.5560426362138,-121.758725481119,0,1
23125,23125,Anderson at Amherst SB,,38.5522163617994,-121.758746872252,0,1
23131,23131,Anderson at Sunset SB,,38.5490517736454,-121.758775393763,0,1
23129,23129,Anderson at Russell SB,,38.5471113468306,-121.758813988311,0,1
23359,23359,Russell at California EB,Russell at California,38.546166100139,-121.753808463258,0,1
23003,23003,UC Davis Memorial Union,,38.5439573850606,-121.749800845969,0,1
23209,23209,Russell at A St. EB,Russell at A St.,38.5461773171881,-121.747138739364,0,1
23000,23000,5th St. at D St. EB,Downtown Davis,38.5468959294757,-121.74310881006,0,1
22028,22028,5th St at G St.,,38.5474708214901,-121.739637460376,0,0
22076,22076,5th St & Pole Line Rd/D.M.V (EB),,38.548635907395,-121.727648178549,0,1
22075,22075,5th St & Post Office / Pole Line (EB),,38.5491660915896,-121.724517494746,0,1
22073,22073,5th St & Cantrill/Police Station  (EB),,38.5518148711052,-121.719077016663,0,1
22237,22237,5th St & Spafford St (EB),,38.5534700971301,-121.712484273422,0,1
22070,22070,5th St & Windmere Apts. (EB),,38.5546271382868,-121.709785425513,0,1
23111,23111,Alhambra at 5th St. EB,,38.557852814941,-121.704120340536,0,1
23113,23113,Alhambra at Arroyo,,38.5579236482336,-121.699980151652,0,1
23116,23116,Alhambra at Mace EB,,38.5586853956393,-121.696740042969,0,1
23202,23202,Mace at 2nd St. SB,,38.5577245712682,-121.694276854305,0,1
23279,23279,W. Capitol at Enterprise EB,W. Capitol at Enterprise,38.5752391778014,-121.576100392876,0,1
23321,23321,W. Capitol at Interstate EB,W. Capitol at Interstate,38.5767527888775,-121.571723990405,0,1
23323,23323,W. Capitol at Roadway EB,,38.578114255018,-121.567072375963,0,1
23325,23325,W. Capitol at Northport EB,W. Capitol at Northpoint,38.5783846049003,-121.562170241385,0,1
23288,23288,W. Capitol at Pine EB,W. Capitol at Pine,38.5787866535394,-121.555211642371,0,1
23283,23283,W. Capitol at Harbor EB,,38.5792207321167,-121.547663488222,0,1
23281,23281,W. Capitol at Glide EB,,38.5793778824629,-121.54509751408,0,1
23292,23292,W. Capitol at Walnut EB,,38.5796870934777,-121.539936753508,0,1
23291,23291,W. Capitol at Sycamore EB,,38.5798252272502,-121.53752276525,0,1
23290,23290,W. Capitol at Poplar EB,,38.580036111606,-121.533652314069,0,1
23333,23333,W. Capitol at Westacre EB,,38.5802095362445,-121.530934709309,0,1
23285,23285,W. Capitol at Jefferson EB,W. Capitol at Jefferson,38.5806413402104,-121.526215271865,0,1
23472,23472,W. Capitol at Merkley,,38.581496243566,-121.522534580382,0,1
23578,23578,Garden at W. Capitol SB,,38.581767410394,-121.518633786927,0,1
23576,23576,Tower Bridge Gtwy at Garden EB,,38.581142191955,-121.517669052939,0,1
23575,23575,Cabaldon Pkwy at Sutter Health Park EB,Tower Bridge Gtwy at Raley Field EB,38.581886505001,-121.513954193232,0,1
23412,23412,Capitol Mall at Front EB,Embassy Suites,38.580078150491,-121.50681307871,0,1
23387,23387,5th St. at L St.,,38.5791249904802,-121.501278125614,0,1
23397,23397,J St. at 6th St.,,38.5816665459449,-121.498715725754,0,1
23398,23398,J St. at 8th St.,,38.5810083317443,-121.496386350246,0,1
23385,23385,9th St. at K St.,,38.5792464951902,-121.495463675532,0,1
23400,23400,L St. at 5th St.,,38.5797707150566,-121.500480404169,0,1
23492,23492,Terminal A (Airport),,38.6924514306278,-121.58859109074,0,1
23493,23493,Terminal B (Airport),,38.691235391147,-121.590562640138,0,1
23084,23084,E. Main at Industrial WB,"38.67742469853481, -121.75376602314435",38.6773703086134,-121.753777817471,0,1
23473,23473,West Sacramento Transit Center,,38.5809329796394,-121.522479595094,0,1
23284,23284,W. Capitol at Jefferson WB,,38.5809079089507,-121.526012984572,0,1
23335,23335,W. Capitol at Westacre WB,,38.5804749046916,-121.530814406027,0,1
23289,23289,W. Capitol at Poplar WB,,38.5802324330348,-121.534871590864,0,1
23277,23277,W. Capitol at Cedar WB,,38.5798840527847,-121.539413641375,0,1
23286,23286,W. Capitol at Pecan WB,,38.5797168296644,-121.542112489284,0,1
23280,23280,W. Capitol at Glide WB,,38.5795189484691,-121.545652721747,0,1
23282,23282,W. Capitol at Harbor WB,,38.579424188267,-121.54737827312,0,1
23320,23320,Harbor at W. Capitol NB,,38.5805119502197,-121.548532354821,0,1
23233,23233,Harbor at Duluth NB,,38.5848237645674,-121.547110528212,0,1
23565,23565,Riverpoint at Harbor WB,,38.5893087227022,-121.546525663365,0,1
23567,23567,Riverpoint at Wal-Mart,,38.5891110354132,-121.549914571638,0,1
23421,23421,Ikea Ct. at IKEA NB,,38.5891254478189,-121.552002162713,0,1
23263,23263,Reed at I-80 WB,,38.5920173340207,-121.551229898543,0,1
23329,23329,Stillwater at Reed,,38.5914998657586,-121.555792746015,0,1
23328,23328,Stillwater at Citi Group,,38.5885692291599,-121.558004114509,0,1
23579,23579,Riverside at Embarcadero WB,,38.5858721190584,-121.563002717826,0,1
23330,23330,Riverside at State Library WB,Riverside at State Library,38.5865964643119,-121.566329691787,0,1
23267,23267,Riverside at Cummins Co.,,38.5895683520775,-121.566233132257,0,1
23478,23478,Riverside at Social Security,,38.590827649285,-121.564031038525,0,1
23265,23265,Reed at Stillwater,,38.592185569452,-121.557214572624,0,1
23264,23264,Reed at Ikea EB,,38.591685956221,-121.548297199505,0,1
23564,23564,Harbor at Riverpoint,,38.5885960512516,-121.546109857923,0,1
23232,23232,Harbor at Duluth SB,,38.584532114356,-121.547392876758,0,1
23230,23230,Harbor at W. Capitol SB,,38.5810479851066,-121.548562606451,0,1
23563,23563,N St. at 7th St.,,38.5768244090496,-121.499245099754,0,1
23391,23391,9th St. at L St.,,38.5781277780342,-121.495984090365,0,1
23600,23600,Capitol Mall at 7th St.,,38.578002344212,-121.498241891079,0,1
23411,23411,Capitol Mall at Front WB,Old Sacramento,38.5801333310709,-121.506318968753,0,1
23574,23574,Cabaldon Pkwy at Sutter Health Park WB,Tower Bridge Gtwy at Raley Field WB,38.581607425154,-121.511910478361,0,1
23577,23577,Garden at W. Capitol NB,,38.5819067590427,-121.518444831921,0,1
23145,23145,B at 4th SB,,38.5450619310986,-121.745094063324,0,1
23107,23107,1st St. at C St. EB,,38.5415537464432,-121.742612494218,0,1
23368,23368,Cowell at Drew EB,,38.5398482406049,-121.726764692471,0,1
23193,23193,Lillard at Cowell EB,Lillard at Cowell,38.5412483537941,-121.722152633795,0,1
23171,23171,Drummond at Lillard NB,,38.543595286822,-121.713381809794,0,1
23160,23160,Cowell at Drummond EB,,38.5474737612888,-121.712531549485,0,1
23165,23165,Cowell at La Vida EB,,38.5481617479421,-121.702776354717,0,1
23175,23175,Ensenada at Chiles,,38.5503464073149,-121.700656068364,0,1
23203,23203,Mace at Chiles,,38.5497335225185,-121.694444071915,0,1
23162,23162,Cowell at El Cemonte EB,Cowell at El Cemonte,38.5488430290725,-121.690238367929,0,1
23173,23173,El Cemonte at Glide NB,El Cemonte at Glide,38.5509981841444,-121.690978657662,0,1
23149,23149,Chiles at Mace,,38.5510431947177,-121.693283179652,0,1
23390,23390,9th St. at Capitol Mall,,38.5769413530978,-121.496503410013,0,1
23392,23392,9th St. at N St.,,38.575923279044,-121.496911323753,0,1
23393,23393,9th St. at O St.,,38.5749350284692,-121.497360539529,0,1
23394,23394,9th St. at P St.,,38.5738786307034,-121.497814313979,0,1
23395,23395,10th St. at N St.,,38.5756722726159,-121.495404000806,0,1
23417,23417,N St. at 14th St.,,38.5745250849125,-121.490518629213,0,1
23416,23416,16th St. at Capitol Ave,,38.5744186568761,-121.486747259341,0,1
23240,23240,Jefferson at Michigan NB,,38.5830000416632,-121.526163762838,0,1
23439,23439,Jefferson at Triangle Court NB,,38.5872652491129,-121.526879419175,0,1
23223,23223,5th St. at C St.,,38.5890892208378,-121.512551872064,0,1
23224,23224,6th St. at Andrew SB,,38.5908477512066,-121.513893246038,0,1
23508,23508,Cummins at Rueter WB,,38.5933889571224,-121.517104618141,0,1
23509,23509,Cummins at Fairway WB,Cummins at Fairway,38.5939434733857,-121.521504061101,0,1
23510,23510,Cummins at Hardy WB,Cummins at Hardy,38.5941803257605,-121.52347204531,0,1
23511,23511,Cummins at Kegle WB,,38.5943530881764,-121.525924895193,0,1
23424,23424,Anna at Holland WB,,38.5963565445338,-121.529664778228,0,1
23423,23423,Anna at Todhunter WB,,38.5953840810461,-121.533475965039,0,1
23226,23226,Anna at Bryte WB,,38.594319650322,-121.537397672701,0,1
23228,23228,Bryte at Lisbon,,38.5955456948021,-121.538756009628,0,1
23255,23255,Lisbon at Water,,38.5947710600435,-121.542239199071,0,1
23272,23272,Water at Hobson SB,Water at Hobson,38.5924471056134,-121.541447727161,0,1
23327,23327,Solano at Sacramento SB,Solano at Sacramento,38.5913742715336,-121.540071564291,0,1
23379,23379,Reed at Oak WB,Reed at Oak,38.5915860530375,-121.543918402989,0,1
23566,23566,Ikea Ct. at Reed,,38.5912293680394,-121.548916797665,0,1
23380,23380,Reed at Oak EB,Reed at Oak,38.5913937777509,-121.544014663086,0,1
23437,23437,Sacramento at Bryte EB,Sacramento at Bryte,38.5905382858131,-121.537121064731,0,1
23332,23332,Sacramento at Todhunter,,38.5901481558122,-121.533584397458,0,1
23434,23434,Sacramento at Jefferson EB,Sacramento at Jefferson,38.589476569916,-121.527440100424,0,1
23243,23243,Jefferson at Triangle Court SB,,38.5873293446177,-121.527150373522,0,1
23239,23239,Jefferson at Michigan,,38.5824677364719,-121.526623672191,0,1
23304,23304,East at Gum,,38.6696819569926,-121.765467878716,0,1
23569,23569,East at Cross NB,,38.6721899014145,-121.765432226829,0,1
23361,23361,E. Main at Industrial EB,,38.6771554278355,-121.7513925134,0,1
23396,23396,J St. at 4th St.,,38.5822474370777,-121.500972641171,0,1
23287,23287,W. Capitol at Pine WB,W. Capitol at Pine,38.5789225145262,-121.555663771854,0,1
23326,23326,W. Capitol at Northport WB,W. Capitol at Northpoint,38.5785936376169,-121.561956330058,0,1
23324,23324,W. Capitol at Roadway WB,W. Capitol at Roadway,38.5782731205361,-121.566740813406,0,1
23322,23322,W. Capitol at Interstate Co. WB,W. Capitol at Interstate Co.,38.5770077608744,-121.571282863919,0,1
23278,23278,W. Capitol at Enterprise WB,W. Capitol at Enterprise,38.5754274235624,-121.576184998497,0,1
23561,23561,Mace at 2nd St. NB,,38.5563404608317,-121.694028068257,0,1
23114,23114,Alhambra at Carcia,,38.5580373083854,-121.702877246874,0,1
22069,22069,5th St & Pelz Bike Path (WB),,38.5548060639672,-121.709323108196,0,1
22238,22238,5th St & Spafford (WB),,38.5533200330932,-121.713569248038,0,1
22072,22072,5th St & Cantrill/Greystone (WB),,38.5514659364942,-121.721505358273,0,1
22074,22074,5th St & Post Office / Pole Line Rd (WB),,38.5492298045098,-121.724867331297,0,1
22077,22077,5th St & Pole Line Rd/D.M.V (WB),,38.5488087793618,-121.727751569024,0,1
22029,22029,5th St at I St. ,,38.5479945224535,-121.737657636408,0,0
23110,23110,5th St. at D St. WB,Downtown Davis,38.5469684259762,-121.743426111862,0,1
23208,23208,Russell at A St.WB,Russell at A St.,38.5463187431908,-121.747169560085,0,1
23360,23360,Russell at California WB,Russell at California,38.5463417663933,-121.753844115146,0,1
23130,23130,Anderson at Russell NB,,38.5471810547968,-121.758642859249,0,1
23132,23132,Anderson at Sunset NB,,38.5491746740254,-121.758621468117,0,1
23126,23126,Anderson at Amherst NB,,38.55250096739,-121.758571555474,0,1
23136,23136,Anderson at Villanova NB,,38.5564348843764,-121.758482425755,0,1
23127,23127,Anderson at Hanover NB,,38.5594569677918,-121.758468165,0,1
23155,23155,W. Covell at Sycamore WB,,38.5609690498058,-121.764653724742,0,1
23616,23616,Park at Webster SB,Park at Webster Southbound,38.575400994954,-121.526510808321,0,1
23444,23444,Park at Hughes SB,,38.5680702252254,-121.533085016436,0,1
23447,23447,Park at Stone SB,,38.5638665415372,-121.536889072867,0,1
23614,23614,Jefferson at Gateway SB,Jefferson at Gateway southbound,38.5567562400153,-121.532953642042,0,1
23315,23315,Jefferson at Lake Washington SB,Jefferson at Lake Washington,38.5520518305691,-121.538106711634,0,1
23462,23462,Jefferson at N. Linden SB,,38.5497041881148,-121.540260085658,0,1
23356,23356,Jefferson at Higgins SB,Jefferson at Higgins,38.5464223789249,-121.543319017634,0,1
23464,23464,Jefferson at S. Linden SB,,38.539239239078,-121.550021572545,0,1
23318,23318,Marshall at Rivermont,,38.5351493705401,-121.557312492924,0,1
23524,23524,Marshall at Seymour,"38.53519137793792, -121.56255127265578",38.5351559050664,-121.562558949878,0,1
23590,23590,Southport Pkwy at Marshall,,38.5359107575363,-121.57605404115,0,1
23591,23591,Southport Pkwy at Oakland Bay,Southport Pkwy at Oakland Bay (Northbound Farside),38.5397800443159,-121.576031998808,0,1
23592,23592,Southport Pkwy at Promenade,Southport Pkwy at Promenade (Northbound Nearside),38.5449846711746,-121.570112947828,0,1
1434,1434,Y Street & 45th,UC Davis Medical Center,38.5525002212823,-121.452880290322,0,1
1811,1811,Stockton Blvd & Colonial Way (NB),,38.5554050538185,-121.458494154125,0,1
1435,1435,Mondavi Center,Mondavi Center (Mrak Hall & Old Davis Road),38.534455659059,-121.748439624813,0,1
23010,23010,UC Davis Health Sciences SB,UC Davis Health Sciences,38.535099389261,-121.764382676147,0,1
1453,1453,Silo at UC Davis,Silo at UC Davis (Hutchison Drive & California Way),38.5392138981351,-121.7538442763,0,1
23514,23514,Sacramento at Jefferson WB,Sacramento at Jefferson,38.5897341637797,-121.527774395892,0,1
23435,23435,Sacramento at Todhunter WB,Sacramento at Todhunter,38.5903404344347,-121.533616484157,0,1
23436,23436,Sacramento at Bryte WB,Sacramento at Bryte,38.5906386046136,-121.536514982638,0,1
23266,23266,Solano at Sacramento NB,Solano at Sacramento,38.5913714849307,-121.539939652306,0,1
23234,23234,Hobson at Water,,38.5921302162683,-121.541110322779,0,1
23271,23271,Water at Lisbon,,38.5945854243389,-121.542313190836,0,1
23254,23254,Lisbon at Bryte,,38.5955456948021,-121.538987746899,0,1
23227,23227,Anna at Bryte EB,,38.5941656586031,-121.537663581232,0,1
23422,23422,Anna at Todhunter EB,,38.5951272305922,-121.534098925239,0,1
23425,23425,Anna at Holland EB,,38.5962711928052,-121.529575379466,0,1
23515,23515,Cummins at Kegle EB,,38.5942461248783,-121.525833697667,0,1
23516,23516,Cummins at Hardy EB,Cummins at Hardy,38.5940167959939,-121.522865833215,0,1
23517,23517,Cummins at Fairway EB,Cummins at Fairway,38.5937981959461,-121.521100939578,0,1
23518,23518,Douglas at Cummins NB,,38.5944553371939,-121.519545258257,0,1
23429,23429,Lighthouse at Douglas EB,Lighthouse at Douglas,38.5954812822033,-121.519120128102,0,1
23431,23431,Lighthouse at Fountain EB,Lighthouse at Fountain,38.5952506122142,-121.515071333353,0,1
23519,23519,Sacramento at Douglas,,38.5892259181392,-121.523808036047,0,1
23593,23593,Promenade at Golden Gate,Promenade at Golden Gate (Southbound Nearside),38.5433896598881,-121.567629997641,0,1
23229,23229,Golden Gate at Tortola,,38.5402913678933,-121.572266239095,0,1
23467,23467,Southport Pkwy at Oakland Bay SB,,38.5383208671941,-121.576284095724,0,1
23465,23465,Jefferson at S. Linden NB,,38.5397049379816,-121.549294274033,0,1
23523,23523,Jefferson at Higgins NB,Jefferson at Higgins,38.5468211113993,-121.542641631765,0,1
23463,23463,Jefferson at N. Linden NB,,38.5497571642649,-121.539853654138,0,1
23314,23314,Jefferson at Lake Washington NB,Jefferson at Lake Washington,38.5520574068257,-121.53767888898,0,1
23238,23238,Jefferson at Gateway,,38.5566502979903,-121.532725469959,0,1
23262,23262,Park at Stone NB,,38.5637215825413,-121.536750030505,0,1
23258,23258,Park at 17th NB,,38.5682458379592,-121.53272136718,0,1
23615,23615,Park at Webster NB,Park at Webster Northbound,38.5752755698226,-121.526289766617,0,1
23386,23386,3rd St. at Capitol Mall SB,,38.5791282495769,-121.504443367694,0,1
23535,23535,3rd St. at O St.,,38.5775634476506,-121.505159322938,0,1
23389,23389,5th St. at P St.,,38.5756123244503,-121.502880366814,0,1
23531,23531,5th St. at O St.,,38.5766608134042,-121.502421550426,0,1
23388,23388,5th St. at N St.,,38.5780916213822,-121.501766098443,0,1
23406,23406,H St. at 11th St.,,38.581983514266,-121.490892288866,0,1
23407,23407,H St. at 14th St.,,38.5808715057074,-121.48666040978,0,1
23415,23415,15th St. at K St.,,38.5764952645597,-121.487506269664,0,1
23414,23414,15th St. at N St.,,38.5742981638668,-121.488426926355,0,1
23418,23418,P St. at 14th St.,,38.5720897359902,-121.490227370872,0,1
23419,23419,P St. at 13th St.,,38.5728139324673,-121.493010162891,0,1
23420,23420,P St. at 11th St.,,38.5732685669224,-121.494746893331,0,1
23527,23527,Arthur at Alameda NB,,38.5469601182318,-121.770553098354,0,1
23374,23374,Eisenhower at Amador NB,Eisenhower at Amador,38.5483760933102,-121.775340962809,0,1
23375,23375,Calaveras at Arlington WB,Calaveras at Arlington,38.550659650961,-121.77894180348,0,1
23141,23141,Arlington at Shasta WB,,38.553716603143,-121.781972603915,0,1
23138,23138,Arlington at Lake WB,Arlington at Lake,38.5552648707746,-121.787179863434,0,1
23190,23190,Lake at W. Covell NB,Lake at W. Covell,38.5603033270599,-121.786100702553,0,1
23219,23219,W. Covell at Shasta EB,W. Covell at Shasta,38.5608016331066,-121.771881638365,0,1
23581,23581,F at Anderson NB,,38.5733206528573,-121.747191430075,0,1
23148,23148,Chiles at Mace,,38.5508211583389,-121.693631362535,0,1
23161,23161,Cowell at El Cemonte WB,Cowell at El Cemonte,38.5489784806358,-121.689913820619,0,1
23001,23001,Cowell at Sunrise WB,,38.5480303196925,-121.696910363252,0,1
23164,23164,Cowell at La Vida WB,,38.54815236021,-121.702981543719,0,1
23528,23528,Drummond at Cowell SB,,38.5467307893474,-121.713353646597,0,1
23172,23172,Drummond at Lillard SB,,38.5437065985028,-121.713413996304,0,1
23218,23218,Lillard at Farragut WB,Lillard at Farragut,38.5412899280363,-121.720790071535,0,1
23367,23367,Cowell at Drew WB,,38.5399099314159,-121.727445973602,0,1
23369,23369,Cowell at Research Park WB,,38.5399407768214,-121.731813951243,0,1
23106,23106,1st St. at D St. WB,,38.5417544144747,-121.74213459251,0,1
23178,23178,F St. at 5th St.,,38.5474749189811,-121.741067916046,0,1
23183,23183,F St. at Covell NB,,38.5601164003266,-121.744768082726,0,1
23151,23151,E. Covell at J EB,,38.5605307555515,-121.738076909666,0,1
23154,23154,E. Covell at Poleline EB,Nugget Market,38.5622272528545,-121.732137157448,0,1
23199,23199,Loyola at Regis West,Loyola at Regis,38.5575628910996,-121.726515247018,0,1
23214,23214,Tulip at Cascade NB,Tulip at Cascade (Loyola),38.5580996114887,-121.717226676049,0,1
23213,23213,Tulip at Blackburn,,38.5604972279368,-121.717529846283,0,1
23205,23205,Monarch at Covell NB,Monarch at Covell,38.5634691157024,-121.714537841948,0,1
23120,23120,Alhambra at San Miguel,,38.5624176897059,-121.709561002824,0,1
23119,23119,Alhambra at Loyola SB,,38.5600439345863,-121.708937389191,0,1
23101,23101,West at North NB,West at North,38.6801319594474,-121.783940077415,0,1
23100,23100,West at Clover NB,West at Clover,38.6827868510736,-121.783918620326,0,1
23019,23019,W. Beamer at West WB,W. Beamer at West,38.6848351074289,-121.784467923993,0,1
23013,23013,W. Beamer at Mariposa WB,W. Beamer at Mariposa,38.6848712860509,-121.789883445756,0,1
23022,23022,Cottonwood at W Beamer SB,Peterson Clinic,38.6845413705067,-121.793257818181,0,1
23024,23024,Cottonwood at Buckeye SB,,38.6831720953032,-121.793252453909,0,1
23026,23026,Cottonwood at Riverside SB,Cottonwood at Riverside,38.6802952758133,-121.793300732359,0,1
23034,23034,Cottonwood at W. Main SB,,38.6779627477552,-121.79332755372,0,1
23032,23032,Cottonwood at W. Lincoln SB,,38.6756992291717,-121.793401990249,0,1
23028,23028,Cottonwood at W. Cross SB,,38.6718400234372,-121.793440203436,0,1
23036,23036,Cottonwood at W. Southwood SB,,38.6689753132218,-121.793440203436,0,1
23030,23030,Cottonwood at W. Gibson SB,,38.6641868193871,-121.793479434972,0,1
23052,23052,W. Gibson at Amherst EB,W. Gibson at Amherst,38.6629871119748,-121.790882891106,0,1
23059,23059,W. Gibson at Midway EB,W. Gibson at Midway,38.6629521015746,-121.786703044301,0,1
23065,23065,Gibson at West,,38.6629397810582,-121.784396040552,0,1
23060,23060,Gibson at Spruce,,38.6628936412779,-121.778413980378,0,1
23054,23054,Gibson at College EB,,38.6628610668849,-121.775285304686,0,1
23112,23112,Alhambra at Atlantis,,38.5580711697382,-121.699003827512,0,1
23118,23118,Alhambra at 5th St. WB,,38.5581570004318,-121.705630225279,0,1
23215,23215,Alhambra at Loyola NB,,38.560408715034,-121.70897225791,0,1
23117,23117,Alhambra at Covell,,38.5635978617428,-121.709402752483,0,1
23204,23204,Monarch at Campbell SB,Monarch at Campbell,38.562680478428,-121.714540585469,0,1
23212,23212,Tulip at Blackburn SB,Tulip at Blackburn,38.5600063836578,-121.717511070818,0,1
23217,23217,Loyola at Tulip,,38.557868719215,-121.717713603487,0,1
23198,23198,Loyola at Whittier Dr,,38.5576122316977,-121.727211266407,0,1
23371,23371,Poleline at Chestnut NB,Poleline at Chestnut,38.5598146490467,-121.73042706669,0,1
23206,23206,Poleline at Covell,,38.5620337253616,-121.731054539916,0,1
23152,23152,E. Covell at J WB,,38.5606890058928,-121.738409503604,0,1
23184,23184,F St. at Covell SB,,38.5601610053631,-121.744928516221,0,1
23179,23179,F St. at 6th St. SB,F St. at 6th St.,38.5483924179311,-121.741418942298,0,1
23405,23405,L St. at 13th St.,,38.5767795787322,-121.489243000105,0,1
23404,23404,L St. at 11th St.,,38.5779382930957,-121.493651210883,0,1
23144,23144,B at 4th NB,Central Park,38.5450265207622,-121.744928055363,0,1
23532,23532,Q St. at 5th St.,,38.5741942833789,-121.503025167928,0,1
23533,23533,Q St. at 7th St.,,38.5734847568883,-121.500322688983,0,1
883,883,T Street & 45th (WB),,38.560415420557,-121.466226963176,0,1
3718,3718,Stockton Blvd & Colonial Way (SB),,38.5552481445818,-121.458464649824,0,1
23157,23157,W. Covell at Shasta WB,W. Covell at Shasta,38.5610387443365,-121.773006962064,0,1
23191,23191,Lake at W. Covell SB,Lake at W. Covell,38.5605152001858,-121.786239744916,0,1
23139,23139,Arlington at Lake EB,Arlington at Lake,38.5550313880541,-121.786881478899,0,1
23140,23140,Arlington at Shasta EB,,38.5534394150808,-121.781348305908,0,1
23376,23376,Calaveras at Arlington EB,Calaveras at Arlington,38.5505927345522,-121.778250156856,0,1
23373,23373,Eisenhower at Amador SB,Eisenhower at Amador,38.5491344990104,-121.776160956229,0,1
23143,23143,Arthur at Alameda SB,Arthur at Alameda,38.5477905540256,-121.770677695881,0,1
23384,23384,L St. at 4th St.,,38.5802087831622,-121.502202093732,0,1
23035,23035,Cottonwood at W. Main NB,,38.6779484854906,-121.793227153613,0,1
